WARNING:tensorflow:From /home/pi/Desktop/project/script/utils/label_map_util.py:137: The name tf.gfile.GFile is deprecated. Please use tf.io.gfile.GFile instead.

WARNING:tensorflow:From /home/pi/Desktop/project/script/od.py:57: The name tf.GraphDef is deprecated. Please use tf.compat.v1.GraphDef instead.

WARNING:tensorflow:From /home/pi/Desktop/project/script/od.py:62: The name tf.Session is deprecated. Please use tf.compat.v1.Session instead.

warm up GPS
1 $GPGGA,223622.00,5232.74380,N,01321.30462,E,1,08,0.90,46.5,M,42.2,M,,*67
2 $GPGGA,223623.00,5232.74386,N,01321.30462,E,1,08,0.90,46.4,M,42.2,M,,*61
3 $GPGGA,223624.00,5232.74391,N,01321.30461,E,1,08,0.90,46.3,M,42.2,M,,*64
4 $GPGGA,223625.00,5232.74402,N,01321.30454,E,1,08,0.90,46.2,M,42.2,M,,*6F
5 $GPGGA,223626.00,5232.74415,N,01321.30450,E,1,08,0.90,46.0,M,42.2,M,,*6C
6 $GPGGA,223627.00,5232.74423,N,01321.30446,E,1,08,0.90,45.8,M,42.2,M,,*64
7 $GPGGA,223628.00,5232.74434,N,01321.30437,E,1,08,0.90,45.7,M,42.2,M,,*64
8 $GPGGA,223629.00,5232.74443,N,01321.30429,E,1,08,0.90,45.6,M,42.2,M,,*6B
9 $GPGGA,223630.00,5232.74451,N,01321.30423,E,1,08,0.90,45.6,M,42.2,M,,*6A
10 $GPGGA,223631.00,5232.74456,N,01321.30421,E,1,08,0.90,45.6,M,42.2,M,,*6E
11 $GPGGA,223632.00,5232.74458,N,01321.30419,E,1,08,0.90,45.7,M,42.2,M,,*69
12 $GPGGA,223633.00,5232.74458,N,01321.30419,E,1,08,0.90,45.8,M,42.2,M,,*67
13 $GPGGA,223634.00,5232.74458,N,01321.30419,E,1,08,0.89,45.9,M,42.2,M,,*69
14 $GPGGA,223635.00,5232.74457,N,01321.30416,E,1,08,0.89,46.0,M,42.2,M,,*62
15 $GPGGA,223636.00,5232.74454,N,01321.30416,E,1,08,0.89,46.1,M,42.2,M,,*63
16 $GPGGA,223637.00,5232.74450,N,01321.30416,E,1,08,0.89,46.1,M,42.2,M,,*66
17 $GPGGA,223638.00,5232.74445,N,01321.30417,E,1,08,0.89,46.2,M,42.2,M,,*6F
18 $GPGGA,223639.00,5232.74438,N,01321.30422,E,1,08,0.89,46.3,M,42.2,M,,*63
19 $GPGGA,223640.00,5232.74431,N,01321.30428,E,1,08,0.89,46.4,M,42.2,M,,*69
20 $GPGGA,223641.00,5232.74424,N,01321.30435,E,1,08,0.89,46.6,M,42.2,M,,*62
{'lat': 52.54574, 'lon': 13.35507, 'altitude': 46.1, 'satellite': 8.0}
warm up GPS
1 $GPGGA,223648.00,5232.74390,N,01321.30472,E,1,08,0.89,47.6,M,42.2,M,,*61
2 $GPGGA,223649.00,5232.74389,N,01321.30476,E,1,08,0.89,47.7,M,42.2,M,,*6D
3 $GPGGA,223650.00,5232.74387,N,01321.30483,E,1,08,0.89,47.9,M,42.2,M,,*6F
4 $GPGGA,223651.00,5232.74383,N,01321.30494,E,1,08,0.89,48.1,M,42.2,M,,*6B
5 $GPGGA,223652.00,5232.74382,N,01321.30507,E,1,08,0.89,48.2,M,42.2,M,,*61
6 $GPGGA,223653.00,5232.74383,N,01321.30517,E,1,08,0.89,48.4,M,42.2,M,,*66
7 $GPGGA,223654.00,5232.74386,N,01321.30527,E,1,08,0.89,48.6,M,42.2,M,,*65
8 $GPGGA,223655.00,5232.74390,N,01321.30535,E,1,08,0.89,48.7,M,42.2,M,,*61
9 $GPGGA,223656.00,5232.74397,N,01321.30540,E,1,08,0.89,48.9,M,42.2,M,,*69
10 $GPGGA,223657.00,5232.74404,N,01321.30544,E,1,08,0.89,49.1,M,42.2,M,,*68
11 $GPGGA,223658.00,5232.74410,N,01321.30553,E,1,08,0.89,49.4,M,42.2,M,,*61
12 $GPGGA,223659.00,5232.74417,N,01321.30559,E,1,08,0.89,49.6,M,42.2,M,,*6F
13 $GPGGA,223700.00,5232.74425,N,01321.30567,E,1,08,0.89,49.9,M,42.2,M,,*61
14 $GPGGA,223701.00,5232.74434,N,01321.30572,E,1,08,0.89,50.1,M,42.2,M,,*64
15 $GPGGA,223702.00,5232.74443,N,01321.30580,E,1,08,0.89,50.3,M,42.2,M,,*68
16 $GPGGA,223703.00,5232.74451,N,01321.30588,E,1,08,0.89,50.6,M,42.2,M,,*67
17 $GPGGA,223704.00,5232.74457,N,01321.30599,E,1,08,0.89,50.9,M,42.2,M,,*69
18 $GPGGA,223705.00,5232.74464,N,01321.30608,E,1,08,0.89,51.1,M,42.2,M,,*6A
19 $GPGGA,223706.00,5232.74471,N,01321.30613,E,1,08,0.89,51.3,M,42.2,M,,*65
20 $GPGGA,223707.00,5232.74475,N,01321.30624,E,1,08,0.89,51.6,M,42.2,M,,*61
{'lat': 52.545742, 'lon': 13.355097, 'altitude': 50.5, 'satellite': 8.0}

07.01.2020 00:24:44
---> out: EWG3001
flightinfo {'airline': 'Eurowings', 'icao': 'EWG', 'callsign': 'EWG3001', 'flightnumber': 'EW3001', 'aircraft': 'A319', 'origin': 'TXL', 'destination': 'STR', 'hex': '3c48e8', 'squawk': '0000', 'speed': 76, 'lat': 52.557129, 'lon': 13.278961, 'track': 262, 'validposition': 1, 'validtrack': 1, 'messages': 30, 'seen': 0, 'altitude': 91, 'vert_rate': 2368, 'timestamp': datetime.datetime(2020, 1, 7, 0, 24, 44, 683910, tzinfo=<DstTzInfo 'Europe/Amsterdam' CET+1:00:00 STD>), 'buffer': 'TXL', 'bound': 'out', 'det_eta': None, 'det_dist_surf': None, 'object': None, 'precision': None, 'img_url': None, 'framerate_avg': None, 'weather_status': 'Clouds', 'weather_status_detail': 'few clouds', 'icon': 'http://openweathermap.org/img/wn/02n@2x.png', 'temperature': 2.77, 'pressure': 1021, 'humidity': 88, 'visibility': 10000, 'wind_speed': 4.1, 'wind_direction': 170, 'cloud_coverage': 20, 'detection_time': datetime.datetime(2020, 1, 7, 0, 24, 45), 'sunrise_time': datetime.datetime(2020, 1, 7, 8, 15, 55), 'sunset_time': datetime.datetime(2020, 1, 7, 8, 15, 55), 'location_name': 'Berlin Reinickendorf'}
07.01.2020 01:17:35
---> in: EWG3002
dists 3070 3086
det_eta 52
0
Traceback (most recent call last):
  File "scan1090.py", line 395, in <module>
    scan()
  File "scan1090.py", line 293, in scan
    detection = od.detect(runtime=wait, wait=wait, img_dir=img_dir, img_name=img_name)
  File "/home/pi/Desktop/project/script/od.py", line 154, in detect
    min_score_thresh=0.8)
  File "/home/pi/Desktop/project/script/utils/visualization_utils.py", line 841, in visualize_boxes_and_labels_on_image_array
    return image, ymin, xmin, ymax,  xmax
UnboundLocalError: local variable 'ymin' referenced before assignment

WARNING:tensorflow:From /home/pi/Desktop/project/script/utils/label_map_util.py:137: The name tf.gfile.GFile is deprecated. Please use tf.io.gfile.GFile instead.

WARNING:tensorflow:From /home/pi/Desktop/project/script/od.py:57: The name tf.GraphDef is deprecated. Please use tf.compat.v1.GraphDef instead.

WARNING:tensorflow:From /home/pi/Desktop/project/script/od.py:62: The name tf.Session is deprecated. Please use tf.compat.v1.Session instead.

warm up GPS
1 $GPGGA,001833.00,5232.75518,N,01321.31303,E,1,10,0.97,74.4,M,42.2,M,,*62
2 $GPGGA,001834.00,5232.75487,N,01321.31310,E,1,10,0.95,73.9,M,42.2,M,,*68
3 $GPGGA,001835.00,5232.75457,N,01321.31321,E,1,10,0.95,73.4,M,42.2,M,,*6B
4 $GPGGA,001836.00,5232.75435,N,01321.31333,E,1,09,0.99,73.0,M,42.2,M,,*6F
5 $GPGGA,001837.00,5232.75416,N,01321.31343,E,1,10,0.95,72.7,M,42.2,M,,*6A
6 $GPGGA,001838.00,5232.75395,N,01321.31350,E,1,10,0.97,72.3,M,42.2,M,,*6D
7 $GPGGA,001839.00,5232.75373,N,01321.31353,E,1,09,1.01,71.8,M,42.2,M,,*69
8 $GPGGA,001840.00,5232.75353,N,01321.31356,E,1,09,1.01,71.4,M,42.2,M,,*6C
9 $GPGGA,001841.00,5232.75332,N,01321.31357,E,1,08,1.05,71.0,M,42.2,M,,*6A
10 $GPGGA,001842.00,5232.75310,N,01321.31360,E,1,09,0.99,70.6,M,42.2,M,,*6F
11 $GPGGA,001843.00,5232.75291,N,01321.31362,E,1,08,1.00,70.3,M,42.2,M,,*61
12 $GPGGA,001844.00,5232.75275,N,01321.31367,E,1,09,0.94,69.9,M,42.2,M,,*66
13 $GPGGA,001845.00,5232.75264,N,01321.31373,E,1,09,0.94,69.5,M,42.2,M,,*6E
14 $GPGGA,001846.00,5232.75257,N,01321.31379,E,1,09,0.94,69.3,M,42.2,M,,*61
15 $GPGGA,001847.00,5232.75247,N,01321.31385,E,1,09,0.94,69.1,M,42.2,M,,*60
16 $GPGGA,001848.00,5232.75227,N,01321.31390,E,1,09,0.94,68.6,M,42.2,M,,*6B
17 $GPGGA,001849.00,5232.75205,N,01321.31393,E,1,09,0.94,68.2,M,42.2,M,,*6D
18 $GPGGA,001850.00,5232.75184,N,01321.31396,E,1,09,0.94,67.8,M,42.2,M,,*6F
19 $GPGGA,001851.00,5232.75166,N,01321.31399,E,1,09,0.94,67.6,M,42.2,M,,*63
20 $GPGGA,001852.00,5232.75151,N,01321.31400,E,1,09,0.94,67.5,M,42.2,M,,*60
{'lat': 52.545871, 'lon': 13.35523, 'altitude': 68.8, 'satellite': 8.9}
warm up GPS
1 $GPGGA,001858.00,5232.75068,N,01321.31428,E,1,09,0.94,66.2,M,42.2,M,,*6D
2 $GPGGA,001859.00,5232.75062,N,01321.31430,E,1,09,0.94,66.1,M,42.2,M,,*6C
3 $GPGGA,001900.00,5232.75046,N,01321.31431,E,1,09,0.94,65.8,M,42.2,M,,*6C
4 $GPGGA,001901.00,5232.75038,N,01321.31430,E,1,09,0.94,65.7,M,42.2,M,,*6A
5 $GPGGA,001902.00,5232.75030,N,01321.31430,E,1,09,0.94,65.6,M,42.2,M,,*60
6 $GPGGA,001903.00,5232.75018,N,01321.31433,E,1,09,0.94,65.4,M,42.2,M,,*6A
7 $GPGGA,001904.00,5232.75007,N,01321.31438,E,1,09,0.94,65.2,M,42.2,M,,*6E
8 $GPGGA,001905.00,5232.74996,N,01321.31443,E,1,09,0.94,64.9,M,42.2,M,,*69
9 $GPGGA,001906.00,5232.74986,N,01321.31448,E,1,09,0.94,64.6,M,42.2,M,,*6F
10 $GPGGA,001907.00,5232.74975,N,01321.31453,E,1,09,0.94,64.1,M,42.2,M,,*6F
11 $GPGGA,001908.00,5232.74963,N,01321.31457,E,1,09,0.94,63.6,M,42.2,M,,*63
12 $GPGGA,001909.00,5232.74951,N,01321.31460,E,1,09,0.94,63.2,M,42.2,M,,*63
13 $GPGGA,001910.00,5232.74941,N,01321.31459,E,1,09,0.94,62.8,M,42.2,M,,*6B
14 $GPGGA,001911.00,5232.74930,N,01321.31455,E,1,09,0.94,62.4,M,42.2,M,,*6C
15 $GPGGA,001912.00,5232.74919,N,01321.31450,E,1,09,0.94,62.1,M,42.2,M,,*64
16 $GPGGA,001913.00,5232.74908,N,01321.31444,E,1,09,0.94,61.7,M,42.2,M,,*65
17 $GPGGA,001914.00,5232.74899,N,01321.31437,E,1,09,0.94,61.4,M,42.2,M,,*6C
18 $GPGGA,001915.00,5232.74891,N,01321.31433,E,1,09,0.94,61.1,M,42.2,M,,*64
19 $GPGGA,001916.00,5232.74883,N,01321.31433,E,1,09,0.94,60.9,M,42.2,M,,*6D
20 $GPGGA,001917.00,5232.74880,N,01321.31434,E,1,09,0.94,60.8,M,42.2,M,,*69
{'lat': 52.54582, 'lon': 13.35524, 'altitude': 62.0, 'satellite': 9.0}

07.01.2020 06:04:56
---> out: RYR255
flightinfo {'airline': 'Ryanair', 'icao': 'RYR', 'callsign': 'RYR255', 'flightnumber': 'FR255', 'aircraft': 'B738', 'origin': 'TXL', 'destination': 'BDS', 'hex': '4ca24e', 'squawk': '0000', 'speed': 77, 'lat': 52.557011, 'lon': 13.277213, 'track': 262, 'validposition': 1, 'validtrack': 1, 'messages': 22, 'seen': 0, 'altitude': 167, 'vert_rate': 3840, 'timestamp': datetime.datetime(2020, 1, 7, 6, 4, 56, 773179, tzinfo=<DstTzInfo 'Europe/Amsterdam' CET+1:00:00 STD>), 'buffer': 'TXL', 'bound': 'out', 'det_eta': None, 'det_dist_surf': None, 'object': None, 'precision': None, 'img_url': None, 'framerate_avg': None, 'weather_status': 'Clouds', 'weather_status_detail': 'scattered clouds', 'icon': 'http://openweathermap.org/img/wn/03n@2x.png', 'temperature': -0.91, 'pressure': 1020, 'humidity': 92, 'visibility': 10000, 'wind_speed': 1.5, 'wind_direction': 160, 'cloud_coverage': 28, 'detection_time': datetime.datetime(2020, 1, 7, 6, 4, 59), 'sunrise_time': datetime.datetime(2020, 1, 7, 8, 15, 55), 'sunset_time': datetime.datetime(2020, 1, 7, 8, 15, 55), 'location_name': 'Berlin Reinickendorf'}

07.01.2020 06:06:30
---> out: KLM44R
flightinfo {'airline': 'KLM Royal Dutch Airlines', 'icao': 'KLM', 'callsign': 'KLM44R', 'flightnumber': 'KL1818', 'aircraft': 'B738', 'origin': 'TXL', 'destination': 'AMS', 'hex': '484130', 'squawk': '1000', 'speed': 76, 'lat': 52.556499, 'lon': 13.272975, 'track': 262, 'validposition': 1, 'validtrack': 1, 'messages': 57, 'seen': 0, 'altitude': 106, 'vert_rate': 3008, 'timestamp': datetime.datetime(2020, 1, 7, 6, 6, 30, 487067, tzinfo=<DstTzInfo 'Europe/Amsterdam' CET+1:00:00 STD>), 'buffer': 'TXL', 'bound': 'out', 'det_eta': None, 'det_dist_surf': None, 'object': None, 'precision': None, 'img_url': None, 'framerate_avg': None, 'weather_status': 'Clouds', 'weather_status_detail': 'scattered clouds', 'icon': 'http://openweathermap.org/img/wn/03n@2x.png', 'temperature': -0.91, 'pressure': 1020, 'humidity': 92, 'visibility': 10000, 'wind_speed': 1.5, 'wind_direction': 160, 'cloud_coverage': 28, 'detection_time': datetime.datetime(2020, 1, 7, 6, 4, 59), 'sunrise_time': datetime.datetime(2020, 1, 7, 8, 15, 55), 'sunset_time': datetime.datetime(2020, 1, 7, 8, 15, 55), 'location_name': 'Berlin Reinickendorf'}

07.01.2020 06:07:49
---> out: RYR2697
flightinfo {'airline': 'Ryanair', 'icao': 'RYR', 'callsign': 'RYR2697', 'flightnumber': 'FR2697', 'aircraft': 'B738', 'origin': 'TXL', 'destination': 'KRK', 'hex': '4caca9', 'squawk': '7620', 'speed': 76, 'lat': 52.557358, 'lon': 13.282013, 'track': 262, 'validposition': 1, 'validtrack': 1, 'messages': 25, 'seen': 0, 'altitude': 137, 'vert_rate': 4544, 'timestamp': datetime.datetime(2020, 1, 7, 6, 7, 49, 715986, tzinfo=<DstTzInfo 'Europe/Amsterdam' CET+1:00:00 STD>), 'buffer': 'TXL', 'bound': 'out', 'det_eta': None, 'det_dist_surf': None, 'object': None, 'precision': None, 'img_url': None, 'framerate_avg': None, 'weather_status': 'Clouds', 'weather_status_detail': 'scattered clouds', 'icon': 'http://openweathermap.org/img/wn/03n@2x.png', 'temperature': -0.94, 'pressure': 1020, 'humidity': 92, 'visibility': 10000, 'wind_speed': 1.5, 'wind_direction': 160, 'cloud_coverage': 28, 'detection_time': datetime.datetime(2020, 1, 7, 6, 7, 50), 'sunrise_time': datetime.datetime(2020, 1, 7, 8, 15, 55), 'sunset_time': datetime.datetime(2020, 1, 7, 8, 15, 55), 'location_name': 'Berlin Reinickendorf'}

07.01.2020 06:09:14
---> out: EJU65GJ
flightinfo {'airline': 'easyJet', 'icao': 'EJU', 'callsign': 'EJU65GJ', 'flightnumber': 'U25835', 'aircraft': 'A320', 'origin': 'TXL', 'destination': 'VCE', 'hex': '440138', 'squawk': '0000', 'speed': 75, 'lat': 52.557129, 'lon': 13.278732, 'track': 263, 'validposition': 1, 'validtrack': 1, 'messages': 27, 'seen': 0, 'altitude': 106, 'vert_rate': 2880, 'timestamp': datetime.datetime(2020, 1, 7, 6, 9, 14, 714320, tzinfo=<DstTzInfo 'Europe/Amsterdam' CET+1:00:00 STD>), 'buffer': 'TXL', 'bound': 'out', 'det_eta': None, 'det_dist_surf': None, 'object': None, 'precision': None, 'img_url': None, 'framerate_avg': None, 'weather_status': 'Clouds', 'weather_status_detail': 'scattered clouds', 'icon': 'http://openweathermap.org/img/wn/03n@2x.png', 'temperature': -0.94, 'pressure': 1020, 'humidity': 92, 'visibility': 10000, 'wind_speed': 1.5, 'wind_direction': 160, 'cloud_coverage': 28, 'detection_time': datetime.datetime(2020, 1, 7, 6, 9, 15), 'sunrise_time': datetime.datetime(2020, 1, 7, 8, 15, 55), 'sunset_time': datetime.datetime(2020, 1, 7, 8, 15, 55), 'location_name': 'Berlin Reinickendorf'}

07.01.2020 06:21:29
---> out: 
flightinfo {'airline': None, 'icao': '', 'callsign': '', 'flightnumber': None, 'aircraft': None, 'origin': None, 'destination': None, 'hex': '4ca78d', 'squawk': '0000', 'speed': 78, 'lat': 52.557151, 'lon': 13.278233, 'track': 263, 'validposition': 1, 'validtrack': 1, 'messages': 21, 'seen': 0, 'altitude': 114, 'vert_rate': 3456, 'timestamp': datetime.datetime(2020, 1, 7, 6, 21, 29, 945764, tzinfo=<DstTzInfo 'Europe/Amsterdam' CET+1:00:00 STD>), 'buffer': 'TXL', 'bound': 'out', 'det_eta': None, 'det_dist_surf': None, 'object': None, 'precision': None, 'img_url': None, 'framerate_avg': None, 'weather_status': 'Clouds', 'weather_status_detail': 'scattered clouds', 'icon': 'http://openweathermap.org/img/wn/03n@2x.png', 'temperature': -1.01, 'pressure': 1020, 'humidity': 92, 'visibility': 10000, 'wind_speed': 1.5, 'wind_direction': 160, 'cloud_coverage': 28, 'detection_time': datetime.datetime(2020, 1, 7, 6, 21, 30), 'sunrise_time': datetime.datetime(2020, 1, 7, 8, 15, 55), 'sunset_time': datetime.datetime(2020, 1, 7, 8, 15, 55), 'location_name': 'Berlin Reinickendorf'}

07.01.2020 06:21:36
---> out: RYR3RM
flightinfo {'airline': 'Ryanair', 'icao': 'RYR', 'callsign': 'RYR3RM', 'flightnumber': 'FR8', 'aircraft': 'B738', 'origin': 'TXL', 'destination': 'MXP', 'hex': '4ca78d', 'squawk': '0000', 'speed': 76, 'lat': 52.556592, 'lon': 13.272348, 'track': 262, 'validposition': 1, 'validtrack': 1, 'messages': 72, 'seen': 0, 'altitude': 228, 'vert_rate': 3904, 'timestamp': datetime.datetime(2020, 1, 7, 6, 21, 36, 368557, tzinfo=<DstTzInfo 'Europe/Amsterdam' CET+1:00:00 STD>), 'buffer': 'TXL', 'bound': 'out', 'det_eta': None, 'det_dist_surf': None, 'object': None, 'precision': None, 'img_url': None, 'framerate_avg': None, 'weather_status': 'Clouds', 'weather_status_detail': 'scattered clouds', 'icon': 'http://openweathermap.org/img/wn/03n@2x.png', 'temperature': -1.01, 'pressure': 1020, 'humidity': 92, 'visibility': 10000, 'wind_speed': 1.5, 'wind_direction': 160, 'cloud_coverage': 28, 'detection_time': datetime.datetime(2020, 1, 7, 6, 21, 36), 'sunrise_time': datetime.datetime(2020, 1, 7, 8, 15, 55), 'sunset_time': datetime.datetime(2020, 1, 7, 8, 15, 55), 'location_name': 'Berlin Reinickendorf'}

07.01.2020 06:24:26
---> out: EJU536P
flightinfo {'airline': 'easyJet', 'icao': 'EJU', 'callsign': 'EJU536P', 'flightnumber': 'U25561', 'aircraft': 'A320', 'origin': 'TXL', 'destination': 'MUC', 'hex': '440a8f', 'squawk': '1000', 'speed': 70, 'lat': 52.556359, 'lon': 13.269052, 'track': 262, 'validposition': 1, 'validtrack': 1, 'messages': 113, 'seen': 0, 'altitude': 259, 'vert_rate': 3136, 'timestamp': datetime.datetime(2020, 1, 7, 6, 24, 26, 102909, tzinfo=<DstTzInfo 'Europe/Amsterdam' CET+1:00:00 STD>), 'buffer': 'TXL', 'bound': 'out', 'det_eta': None, 'det_dist_surf': None, 'object': None, 'precision': None, 'img_url': None, 'framerate_avg': None, 'weather_status': 'Clouds', 'weather_status_detail': 'scattered clouds', 'icon': 'http://openweathermap.org/img/wn/03n@2x.png', 'temperature': -1.01, 'pressure': 1020, 'humidity': 92, 'visibility': 10000, 'wind_speed': 1.5, 'wind_direction': 160, 'cloud_coverage': 28, 'detection_time': datetime.datetime(2020, 1, 7, 6, 21, 36), 'sunrise_time': datetime.datetime(2020, 1, 7, 8, 15, 55), 'sunset_time': datetime.datetime(2020, 1, 7, 8, 15, 55), 'location_name': 'Berlin Reinickendorf'}

07.01.2020 06:26:54
---> out: EWG8040
flightinfo {'airline': 'Eurowings', 'icao': 'EWG', 'callsign': 'EWG8040', 'flightnumber': 'EW8040', 'aircraft': 'A319', 'origin': 'TXL', 'destination': 'DUS', 'hex': '3c6dcf', 'squawk': '0000', 'speed': 69, 'lat': 52.557266, 'lon': 13.279877, 'track': 262, 'validposition': 1, 'validtrack': 1, 'messages': 31, 'seen': 0, 'altitude': 121, 'vert_rate': 2560, 'timestamp': datetime.datetime(2020, 1, 7, 6, 26, 54, 669596, tzinfo=<DstTzInfo 'Europe/Amsterdam' CET+1:00:00 STD>), 'buffer': 'TXL', 'bound': 'out', 'det_eta': None, 'det_dist_surf': None, 'object': None, 'precision': None, 'img_url': None, 'framerate_avg': None, 'weather_status': 'Clouds', 'weather_status_detail': 'scattered clouds', 'icon': 'http://openweathermap.org/img/wn/03n@2x.png', 'temperature': -1.04, 'pressure': 1020, 'humidity': 92, 'visibility': 10000, 'wind_speed': 1.5, 'wind_direction': 160, 'cloud_coverage': 28, 'detection_time': datetime.datetime(2020, 1, 7, 6, 26, 54), 'sunrise_time': datetime.datetime(2020, 1, 7, 8, 15, 55), 'sunset_time': datetime.datetime(2020, 1, 7, 8, 15, 55), 'location_name': 'Berlin Reinickendorf'}

07.01.2020 06:34:28
---> out: EJU92NP
flightinfo {'airline': 'easyJet', 'icao': 'EJU', 'callsign': 'EJU92NP', 'flightnumber': 'U25841', 'aircraft': 'A320', 'origin': 'TXL', 'destination': 'VIE', 'hex': '440380', 'squawk': '0000', 'speed': 69, 'lat': 52.556778, 'lon': 13.275173, 'track': 262, 'validposition': 1, 'validtrack': 1, 'messages': 59, 'seen': 0, 'altitude': 198, 'vert_rate': 3264, 'timestamp': datetime.datetime(2020, 1, 7, 6, 34, 28, 369703, tzinfo=<DstTzInfo 'Europe/Amsterdam' CET+1:00:00 STD>), 'buffer': 'TXL', 'bound': 'out', 'det_eta': None, 'det_dist_surf': None, 'object': None, 'precision': None, 'img_url': None, 'framerate_avg': None, 'weather_status': 'Clouds', 'weather_status_detail': 'scattered clouds', 'icon': 'http://openweathermap.org/img/wn/03n@2x.png', 'temperature': -1.06, 'pressure': 1020, 'humidity': 100, 'visibility': 10000, 'wind_speed': 1.5, 'wind_direction': 220, 'cloud_coverage': 28, 'detection_time': datetime.datetime(2020, 1, 7, 6, 34, 28), 'sunrise_time': datetime.datetime(2020, 1, 7, 8, 15, 55), 'sunset_time': datetime.datetime(2020, 1, 7, 8, 15, 55), 'location_name': 'Berlin Reinickendorf'}

07.01.2020 06:38:06
---> out: EJU875G
flightinfo {'airline': 'easyJet', 'icao': 'EJU', 'callsign': 'EJU875G', 'flightnumber': 'U25591', 'aircraft': 'A319', 'origin': 'TXL', 'destination': 'STR', 'hex': '440599', 'squawk': '1355', 'speed': 69, 'lat': 52.556685, 'lon': 13.274388, 'track': 261, 'validposition': 1, 'validtrack': 1, 'messages': 46, 'seen': 0, 'altitude': 152, 'vert_rate': 2688, 'timestamp': datetime.datetime(2020, 1, 7, 6, 38, 6, 794416, tzinfo=<DstTzInfo 'Europe/Amsterdam' CET+1:00:00 STD>), 'buffer': 'TXL', 'bound': 'out', 'det_eta': None, 'det_dist_surf': None, 'object': None, 'precision': None, 'img_url': None, 'framerate_avg': None, 'weather_status': 'Clouds', 'weather_status_detail': 'scattered clouds', 'icon': 'http://openweathermap.org/img/wn/03n@2x.png', 'temperature': -1.06, 'pressure': 1020, 'humidity': 100, 'visibility': 10000, 'wind_speed': 1.5, 'wind_direction': 220, 'cloud_coverage': 28, 'detection_time': datetime.datetime(2020, 1, 7, 6, 33, 58), 'sunrise_time': datetime.datetime(2020, 1, 7, 8, 15, 55), 'sunset_time': datetime.datetime(2020, 1, 7, 8, 15, 55), 'location_name': 'Berlin Reinickendorf'}

07.01.2020 06:39:38
---> out: EWG9AF
flightinfo {'airline': 'Eurowings', 'icao': 'EWG', 'callsign': 'EWG9AF', 'flightnumber': 'EW8058', 'aircraft': 'A319', 'origin': 'TXL', 'destination': 'CGN', 'hex': '3c6dd3', 'squawk': '1101', 'speed': 67, 'lat': 52.557104, 'lon': 13.278861, 'track': 263, 'validposition': 1, 'validtrack': 1, 'messages': 66, 'seen': 1, 'altitude': 198, 'vert_rate': 2816, 'timestamp': datetime.datetime(2020, 1, 7, 6, 39, 38, 150427, tzinfo=<DstTzInfo 'Europe/Amsterdam' CET+1:00:00 STD>), 'buffer': 'TXL', 'bound': 'out', 'det_eta': None, 'det_dist_surf': None, 'object': None, 'precision': None, 'img_url': None, 'framerate_avg': None, 'weather_status': 'Clouds', 'weather_status_detail': 'scattered clouds', 'icon': 'http://openweathermap.org/img/wn/03n@2x.png', 'temperature': -1.09, 'pressure': 1020, 'humidity': 100, 'visibility': 10000, 'wind_speed': 1.5, 'wind_direction': 220, 'cloud_coverage': 28, 'detection_time': datetime.datetime(2020, 1, 7, 6, 35, 36), 'sunrise_time': datetime.datetime(2020, 1, 7, 8, 15, 55), 'sunset_time': datetime.datetime(2020, 1, 7, 8, 15, 55), 'location_name': 'Berlin Reinickendorf'}

07.01.2020 06:44:38
---> out: DLH6EK
flightinfo {'airline': 'Lufthansa', 'icao': 'DLH', 'callsign': 'DLH6EK', 'flightnumber': 'LH173', 'aircraft': 'A320', 'origin': 'TXL', 'destination': 'FRA', 'hex': '3c66a8', 'squawk': '1000', 'speed': 75, 'lat': 52.556545, 'lon': 13.273211, 'track': 261, 'validposition': 1, 'validtrack': 1, 'messages': 97, 'seen': 0, 'altitude': 182, 'vert_rate': 3264, 'timestamp': datetime.datetime(2020, 1, 7, 6, 44, 38, 229307, tzinfo=<DstTzInfo 'Europe/Amsterdam' CET+1:00:00 STD>), 'buffer': 'TXL', 'bound': 'out', 'det_eta': None, 'det_dist_surf': None, 'object': None, 'precision': None, 'img_url': None, 'framerate_avg': None, 'weather_status': 'Clouds', 'weather_status_detail': 'scattered clouds', 'icon': 'http://openweathermap.org/img/wn/03n@2x.png', 'temperature': -1.12, 'pressure': 1020, 'humidity': 100, 'visibility': 10000, 'wind_speed': 1.5, 'wind_direction': 220, 'cloud_coverage': 28, 'detection_time': datetime.datetime(2020, 1, 7, 6, 44, 38), 'sunrise_time': datetime.datetime(2020, 1, 7, 8, 15, 55), 'sunset_time': datetime.datetime(2020, 1, 7, 8, 15, 55), 'location_name': 'Berlin Reinickendorf'}

07.01.2020 06:46:15
---> out: AFR113J
flightinfo {'airline': 'Air France', 'icao': 'AFR', 'callsign': 'AFR113J', 'flightnumber': 'AF1135', 'aircraft': 'A321', 'origin': 'TXL', 'destination': 'CDG', 'hex': '394c07', 'squawk': '0000', 'speed': 78, 'lat': 52.556625, 'lon': 13.273392, 'track': 263, 'validposition': 1, 'validtrack': 1, 'messages': 56, 'seen': 0, 'altitude': 152, 'vert_rate': 3072, 'timestamp': datetime.datetime(2020, 1, 7, 6, 46, 15, 354554, tzinfo=<DstTzInfo 'Europe/Amsterdam' CET+1:00:00 STD>), 'buffer': 'TXL', 'bound': 'out', 'det_eta': None, 'det_dist_surf': None, 'object': None, 'precision': None, 'img_url': None, 'framerate_avg': None, 'weather_status': 'Clouds', 'weather_status_detail': 'scattered clouds', 'icon': 'http://openweathermap.org/img/wn/03n@2x.png', 'temperature': -1.09, 'pressure': 1020, 'humidity': 100, 'visibility': 10000, 'wind_speed': 1.5, 'wind_direction': 220, 'cloud_coverage': 28, 'detection_time': datetime.datetime(2020, 1, 7, 6, 46, 15), 'sunrise_time': datetime.datetime(2020, 1, 7, 8, 15, 55), 'sunset_time': datetime.datetime(2020, 1, 7, 8, 15, 55), 'location_name': 'Berlin Reinickendorf'}

07.01.2020 06:48:37
---> out: EJU271E
flightinfo {'airline': 'easyJet', 'icao': 'EJU', 'callsign': 'EJU271E', 'flightnumber': 'U25501', 'aircraft': 'A320', 'origin': 'TXL', 'destination': 'DUS', 'hex': '440219', 'squawk': '0000', 'speed': 76, 'lat': 52.556964, 'lon': 13.277291, 'track': 262, 'validposition': 1, 'validtrack': 1, 'messages': 34, 'seen': 0, 'altitude': 91, 'vert_rate': 2688, 'timestamp': datetime.datetime(2020, 1, 7, 6, 48, 37, 954580, tzinfo=<DstTzInfo 'Europe/Amsterdam' CET+1:00:00 STD>), 'buffer': 'TXL', 'bound': 'out', 'det_eta': None, 'det_dist_surf': None, 'object': None, 'precision': None, 'img_url': None, 'framerate_avg': None, 'weather_status': 'Clouds', 'weather_status_detail': 'scattered clouds', 'icon': 'http://openweathermap.org/img/wn/03n@2x.png', 'temperature': -1.11, 'pressure': 1020, 'humidity': 100, 'visibility': 10000, 'wind_speed': 1.5, 'wind_direction': 220, 'cloud_coverage': 28, 'detection_time': datetime.datetime(2020, 1, 7, 6, 48, 38), 'sunrise_time': datetime.datetime(2020, 1, 7, 8, 15, 55), 'sunset_time': datetime.datetime(2020, 1, 7, 8, 15, 55), 'location_name': 'Berlin Reinickendorf'}

07.01.2020 06:50:03
---> out: EJU319G
flightinfo {'airline': 'easyJet', 'icao': 'EJU', 'callsign': 'EJU319G', 'flightnumber': 'U25541', 'aircraft': 'A319', 'origin': 'TXL', 'destination': 'FRA', 'hex': '4401d4', 'squawk': '1000', 'speed': 70, 'lat': 52.557449, 'lon': 13.282089, 'track': 262, 'validposition': 1, 'validtrack': 1, 'messages': 28, 'seen': 0, 'altitude': 83, 'vert_rate': 2496, 'timestamp': datetime.datetime(2020, 1, 7, 6, 50, 3, 84308, tzinfo=<DstTzInfo 'Europe/Amsterdam' CET+1:00:00 STD>), 'buffer': 'TXL', 'bound': 'out', 'det_eta': None, 'det_dist_surf': None, 'object': None, 'precision': None, 'img_url': None, 'framerate_avg': None, 'weather_status': 'Clouds', 'weather_status_detail': 'scattered clouds', 'icon': 'http://openweathermap.org/img/wn/03n@2x.png', 'temperature': -1.11, 'pressure': 1020, 'humidity': 100, 'visibility': 10000, 'wind_speed': 1.5, 'wind_direction': 220, 'cloud_coverage': 28, 'detection_time': datetime.datetime(2020, 1, 7, 6, 50, 3), 'sunrise_time': datetime.datetime(2020, 1, 7, 8, 15, 55), 'sunset_time': datetime.datetime(2020, 1, 7, 8, 15, 55), 'location_name': 'Berlin Reinickendorf'}

07.01.2020 06:51:31
---> out: EJU351Q
flightinfo {'airline': 'easyJet', 'icao': 'EJU', 'callsign': 'EJU351Q', 'flightnumber': 'U25901', 'aircraft': 'A320', 'origin': 'TXL', 'destination': 'CGN', 'hex': '440209', 'squawk': '1376', 'speed': 73, 'lat': 52.557266, 'lon': 13.280029, 'track': 262, 'validposition': 1, 'validtrack': 1, 'messages': 51, 'seen': 0, 'altitude': 121, 'vert_rate': 3200, 'timestamp': datetime.datetime(2020, 1, 7, 6, 51, 31, 359151, tzinfo=<DstTzInfo 'Europe/Amsterdam' CET+1:00:00 STD>), 'buffer': 'TXL', 'bound': 'out', 'det_eta': None, 'det_dist_surf': None, 'object': None, 'precision': None, 'img_url': None, 'framerate_avg': None, 'weather_status': 'Clouds', 'weather_status_detail': 'scattered clouds', 'icon': 'http://openweathermap.org/img/wn/03n@2x.png', 'temperature': -1.12, 'pressure': 1020, 'humidity': 100, 'visibility': 10000, 'wind_speed': 1.5, 'wind_direction': 220, 'cloud_coverage': 28, 'detection_time': datetime.datetime(2020, 1, 7, 6, 44, 38), 'sunrise_time': datetime.datetime(2020, 1, 7, 8, 15, 55), 'sunset_time': datetime.datetime(2020, 1, 7, 8, 15, 55), 'location_name': 'Berlin Reinickendorf'}
07.01.2020 06:57:55
---> in: EWG5MK
dists 3298 3313
det_eta 55
0
Traceback (most recent call last):
  File "scan1090.py", line 395, in <module>
    scan()
  File "scan1090.py", line 293, in scan
    detection = od.detect(runtime=wait, wait=wait, img_dir=img_dir, img_name=img_name)
  File "/home/pi/Desktop/project/script/od.py", line 154, in detect
    min_score_thresh=0.8)
  File "/home/pi/Desktop/project/script/utils/visualization_utils.py", line 841, in visualize_boxes_and_labels_on_image_array
    return image, ymin, xmin, ymax,  xmax
UnboundLocalError: local variable 'ymin' referenced before assignment

WARNING:tensorflow:From /home/pi/Desktop/project/script/utils/label_map_util.py:137: The name tf.gfile.GFile is deprecated. Please use tf.io.gfile.GFile instead.

WARNING:tensorflow:From /home/pi/Desktop/project/script/od.py:57: The name tf.GraphDef is deprecated. Please use tf.compat.v1.GraphDef instead.

WARNING:tensorflow:From /home/pi/Desktop/project/script/od.py:62: The name tf.Session is deprecated. Please use tf.compat.v1.Session instead.

warm up GPS
1 $GPGGA,055855.00,5232.74139,N,01321.30707,E,1,11,0.86,54.5,M,42.2,M,,*66
2 $GPGGA,055856.00,5232.74139,N,01321.30728,E,1,11,0.86,54.6,M,42.2,M,,*6B
3 $GPGGA,055857.00,5232.74140,N,01321.30747,E,1,11,0.86,54.7,M,42.2,M,,*6C
4 $GPGGA,055858.00,5232.74142,N,01321.30766,E,1,11,0.86,54.7,M,42.2,M,,*62
5 $GPGGA,055859.00,5232.74143,N,01321.30779,E,1,11,0.86,54.5,M,42.2,M,,*6E
6 $GPGGA,055900.00,5232.74144,N,01321.30791,E,1,11,0.86,54.3,M,42.2,M,,*64
7 $GPGGA,055901.00,5232.74146,N,01321.30801,E,1,11,0.79,54.2,M,42.2,M,,*60
8 $GPGGA,055902.00,5232.74147,N,01321.30809,E,1,11,0.79,54.0,M,42.2,M,,*68
9 $GPGGA,055903.00,5232.74149,N,01321.30811,E,1,12,0.78,54.0,M,42.2,M,,*6C
10 $GPGGA,055904.00,5232.74151,N,01321.30815,E,1,12,0.78,53.9,M,42.2,M,,*68
11 $GPGGA,055905.00,5232.74155,N,01321.30821,E,1,12,0.78,53.9,M,42.2,M,,*6A
12 $GPGGA,055906.00,5232.74160,N,01321.30825,E,1,12,0.78,53.9,M,42.2,M,,*6B
13 $GPGGA,055907.00,5232.74165,N,01321.30828,E,1,12,0.78,54.0,M,42.2,M,,*6C
14 $GPGGA,055908.00,5232.74170,N,01321.30828,E,1,12,0.74,54.0,M,42.2,M,,*6B
15 $GPGGA,055909.00,5232.74173,N,01321.30833,E,1,12,0.74,54.0,M,42.2,M,,*63
16 $GPGGA,055910.00,5232.74174,N,01321.30834,E,1,12,0.74,54.0,M,42.2,M,,*6B
17 $GPGGA,055911.00,5232.74176,N,01321.30836,E,1,12,0.74,54.0,M,42.2,M,,*6A
18 $GPGGA,055912.00,5232.74179,N,01321.30836,E,1,12,0.74,54.0,M,42.2,M,,*66
19 $GPGGA,055913.00,5232.74183,N,01321.30831,E,1,12,0.74,54.1,M,42.2,M,,*64
20 $GPGGA,055914.00,5232.74188,N,01321.30826,E,1,12,0.74,54.1,M,42.2,M,,*6E
{'lat': 52.545697, 'lon': 13.35514, 'altitude': 54.0, 'satellite': 12.0}
warm up GPS
1 $GPGGA,055921.00,5232.74221,N,01321.30747,E,1,11,0.87,53.8,M,42.2,M,,*61
2 $GPGGA,055922.00,5232.74218,N,01321.30737,E,1,11,0.87,53.6,M,42.2,M,,*61
3 $GPGGA,055923.00,5232.74214,N,01321.30722,E,1,11,0.87,53.2,M,42.2,M,,*6C
4 $GPGGA,055924.00,5232.74210,N,01321.30708,E,1,11,0.87,52.9,M,42.2,M,,*6D
5 $GPGGA,055925.00,5232.74206,N,01321.30700,E,1,10,0.87,52.7,M,42.2,M,,*6C
6 $GPGGA,055926.00,5232.74199,N,01321.30687,E,1,11,0.93,52.2,M,42.2,M,,*65
7 $GPGGA,055927.00,5232.74192,N,01321.30675,E,1,11,0.93,51.8,M,42.2,M,,*6B
8 $GPGGA,055928.00,5232.74187,N,01321.30665,E,1,11,0.86,51.4,M,42.2,M,,*69
9 $GPGGA,055929.00,5232.74180,N,01321.30651,E,1,11,0.86,50.9,M,42.2,M,,*64
10 $GPGGA,055930.00,5232.74174,N,01321.30638,E,1,11,0.86,50.5,M,42.2,M,,*64
11 $GPGGA,055931.00,5232.74167,N,01321.30629,E,1,12,0.86,50.1,M,42.2,M,,*60
12 $GPGGA,055932.00,5232.74160,N,01321.30627,E,1,12,0.79,49.8,M,42.2,M,,*6B
13 $GPGGA,055933.00,5232.74156,N,01321.30629,E,1,12,0.76,49.7,M,42.2,M,,*61
14 $GPGGA,055934.00,5232.74153,N,01321.30633,E,1,12,0.76,49.5,M,42.2,M,,*6A
15 $GPGGA,055935.00,5232.74150,N,01321.30634,E,1,12,0.76,49.4,M,42.2,M,,*6E
16 $GPGGA,055936.00,5232.74149,N,01321.30635,E,1,12,0.76,49.3,M,42.2,M,,*63
17 $GPGGA,055937.00,5232.74147,N,01321.30639,E,1,12,0.76,49.2,M,42.2,M,,*61
18 $GPGGA,055938.00,5232.74146,N,01321.30644,E,1,12,0.76,49.2,M,42.2,M,,*65
19 $GPGGA,055939.00,5232.74145,N,01321.30650,E,1,12,0.76,49.3,M,42.2,M,,*63
20 $GPGGA,055940.00,5232.74147,N,01321.30658,E,1,12,0.76,49.4,M,42.2,M,,*60
{'lat': 52.54569, 'lon': 13.355107, 'altitude': 49.5, 'satellite': 12.0}

07.01.2020 07:02:38
---> out: EWG4EP
flightinfo {'airline': 'Eurowings', 'icao': 'EWG', 'callsign': 'EWG4EP', 'flightnumber': 'EW8000', 'aircraft': 'A319', 'origin': 'TXL', 'destination': 'STR', 'hex': '3c5eed', 'squawk': '0000', 'speed': 68, 'lat': 52.556825, 'lon': 13.276428, 'track': 261, 'validposition': 1, 'validtrack': 1, 'messages': 45, 'seen': 1, 'altitude': 137, 'vert_rate': 3904, 'timestamp': datetime.datetime(2020, 1, 7, 7, 2, 38, 305611, tzinfo=<DstTzInfo 'Europe/Amsterdam' CET+1:00:00 STD>), 'buffer': 'TXL', 'bound': 'out', 'det_eta': None, 'det_dist_surf': None, 'object': None, 'precision': None, 'img_url': None, 'framerate_avg': None, 'weather_status': 'Clouds', 'weather_status_detail': 'scattered clouds', 'icon': 'http://openweathermap.org/img/wn/03n@2x.png', 'temperature': -0.91, 'pressure': 1020, 'humidity': 92, 'visibility': 10000, 'wind_speed': 2.1, 'wind_direction': 270, 'cloud_coverage': 28, 'detection_time': datetime.datetime(2020, 1, 7, 7, 1, 58), 'sunrise_time': datetime.datetime(2020, 1, 7, 8, 15, 55), 'sunset_time': datetime.datetime(2020, 1, 7, 8, 15, 55), 'location_name': 'Berlin Reinickendorf'}

07.01.2020 07:05:10
---> out: THY1YZ
flightinfo {'airline': 'Turkish Airlines', 'icao': 'THY', 'callsign': 'THY1YZ', 'flightnumber': 'TK1728', 'aircraft': 'A321', 'origin': 'TXL', 'destination': 'IST', 'hex': '4baa8a', 'squawk': '0000', 'speed': 76, 'lat': 52.557151, 'lon': 13.279724, 'track': 261, 'validposition': 1, 'validtrack': 1, 'messages': 23, 'seen': 0, 'altitude': 76, 'vert_rate': 2880, 'timestamp': datetime.datetime(2020, 1, 7, 7, 5, 10, 478538, tzinfo=<DstTzInfo 'Europe/Amsterdam' CET+1:00:00 STD>), 'buffer': 'TXL', 'bound': 'out', 'det_eta': None, 'det_dist_surf': None, 'object': None, 'precision': None, 'img_url': None, 'framerate_avg': None, 'weather_status': 'Clouds', 'weather_status_detail': 'scattered clouds', 'icon': 'http://openweathermap.org/img/wn/03n@2x.png', 'temperature': -0.91, 'pressure': 1020, 'humidity': 92, 'visibility': 10000, 'wind_speed': 2.1, 'wind_direction': 270, 'cloud_coverage': 28, 'detection_time': datetime.datetime(2020, 1, 7, 7, 2, 26), 'sunrise_time': datetime.datetime(2020, 1, 7, 8, 15, 55), 'sunset_time': datetime.datetime(2020, 1, 7, 8, 15, 55), 'location_name': 'Berlin Reinickendorf'}
07.01.2020 07:09:09
---> in: EJU5602
dists 3415 3430
det_eta 56
0
Traceback (most recent call last):
  File "scan1090.py", line 395, in <module>
    scan()
  File "scan1090.py", line 293, in scan
    detection = od.detect(runtime=wait, wait=wait, img_dir=img_dir, img_name=img_name)
  File "/home/pi/Desktop/project/script/od.py", line 154, in detect
    min_score_thresh=0.8)
  File "/home/pi/Desktop/project/script/utils/visualization_utils.py", line 841, in visualize_boxes_and_labels_on_image_array
    return image, ymin, xmin, ymax,  xmax
UnboundLocalError: local variable 'ymin' referenced before assignment

WARNING:tensorflow:From /home/pi/Desktop/project/script/utils/label_map_util.py:137: The name tf.gfile.GFile is deprecated. Please use tf.io.gfile.GFile instead.

WARNING:tensorflow:From /home/pi/Desktop/project/script/od.py:57: The name tf.GraphDef is deprecated. Please use tf.compat.v1.GraphDef instead.

WARNING:tensorflow:From /home/pi/Desktop/project/script/od.py:62: The name tf.Session is deprecated. Please use tf.compat.v1.Session instead.

warm up GPS
1 $GPGGA,061008.00,5232.74516,N,01321.31206,E,1,11,0.74,56.8,M,42.2,M,,*6F
2 $GPGGA,061009.00,5232.74508,N,01321.31206,E,1,11,0.74,56.7,M,42.2,M,,*6E
3 $GPGGA,061010.00,5232.74499,N,01321.31208,E,1,11,0.74,56.5,M,42.2,M,,*63
4 $GPGGA,061011.00,5232.74488,N,01321.31208,E,1,11,0.74,56.3,M,42.2,M,,*64
5 $GPGGA,061012.00,5232.74476,N,01321.31208,E,1,11,0.74,56.1,M,42.2,M,,*64
6 $GPGGA,061013.00,5232.74464,N,01321.31208,E,1,11,0.74,55.9,M,42.2,M,,*6D
7 $GPGGA,061014.00,5232.74456,N,01321.31205,E,1,11,0.79,55.7,M,42.2,M,,*65
8 $GPGGA,061015.00,5232.74449,N,01321.31205,E,1,11,0.74,55.6,M,42.2,M,,*66
9 $GPGGA,061016.00,5232.74443,N,01321.31203,E,1,11,0.74,55.5,M,42.2,M,,*6A
10 $GPGGA,061017.00,5232.74439,N,01321.31202,E,1,11,0.74,55.4,M,42.2,M,,*66
11 $GPGGA,061018.00,5232.74435,N,01321.31199,E,1,11,0.74,55.3,M,42.2,M,,*63
12 $GPGGA,061019.00,5232.74432,N,01321.31197,E,1,11,0.74,55.2,M,42.2,M,,*6A
13 $GPGGA,061020.00,5232.74429,N,01321.31195,E,1,11,0.79,55.2,M,42.2,M,,*65
14 $GPGGA,061021.00,5232.74425,N,01321.31190,E,1,11,0.74,55.1,M,42.2,M,,*63
15 $GPGGA,061022.00,5232.74421,N,01321.31187,E,1,11,0.74,55.1,M,42.2,M,,*62
16 $GPGGA,061023.00,5232.74416,N,01321.31184,E,1,11,0.87,55.0,M,42.2,M,,*69
17 $GPGGA,061024.00,5232.74411,N,01321.31181,E,1,11,0.87,55.0,M,42.2,M,,*6C
18 $GPGGA,061025.00,5232.74406,N,01321.31179,E,1,11,0.87,54.9,M,42.2,M,,*64
19 $GPGGA,061026.00,5232.74402,N,01321.31175,E,1,11,0.87,54.8,M,42.2,M,,*6E
20 $GPGGA,061027.00,5232.74398,N,01321.31173,E,1,11,0.87,54.8,M,42.2,M,,*6D
{'lat': 52.545737, 'lon': 13.3552, 'altitude': 55.0, 'satellite': 11.0}
warm up GPS
1 $GPGGA,061034.00,5232.74391,N,01321.31199,E,1,11,0.87,55.9,M,42.2,M,,*62
2 $GPGGA,061035.00,5232.74389,N,01321.31204,E,1,11,0.87,55.9,M,42.2,M,,*6D
3 $GPGGA,061036.00,5232.74386,N,01321.31208,E,1,11,0.87,55.9,M,42.2,M,,*6D
4 $GPGGA,061037.00,5232.74384,N,01321.31210,E,1,11,0.87,55.8,M,42.2,M,,*66
5 $GPGGA,061038.00,5232.74381,N,01321.31214,E,1,11,0.91,55.8,M,42.2,M,,*6F
6 $GPGGA,061039.00,5232.74382,N,01321.31214,E,1,11,0.74,55.9,M,42.2,M,,*67
7 $GPGGA,061040.00,5232.74384,N,01321.31213,E,1,11,0.74,56.0,M,42.2,M,,*62
8 $GPGGA,061041.00,5232.74386,N,01321.31209,E,1,11,0.74,56.1,M,42.2,M,,*6B
9 $GPGGA,061042.00,5232.74386,N,01321.31207,E,1,11,0.79,56.2,M,42.2,M,,*68
10 $GPGGA,061043.00,5232.74385,N,01321.31207,E,1,11,0.74,56.2,M,42.2,M,,*67
11 $GPGGA,061044.00,5232.74385,N,01321.31207,E,1,11,0.74,56.3,M,42.2,M,,*61
12 $GPGGA,061045.00,5232.74383,N,01321.31209,E,1,11,0.74,56.4,M,42.2,M,,*6F
13 $GPGGA,061046.00,5232.74386,N,01321.31211,E,1,11,0.74,56.7,M,42.2,M,,*63
14 $GPGGA,061047.00,5232.74384,N,01321.31213,E,1,11,0.79,56.8,M,42.2,M,,*60
15 $GPGGA,061048.00,5232.74380,N,01321.31214,E,1,11,0.79,56.7,M,42.2,M,,*63
16 $GPGGA,061049.00,5232.74376,N,01321.31215,E,1,11,0.79,56.6,M,42.2,M,,*6B
17 $GPGGA,061050.00,5232.74371,N,01321.31215,E,1,11,0.83,56.5,M,42.2,M,,*62
18 $GPGGA,061051.00,5232.74366,N,01321.31214,E,1,11,0.74,56.3,M,42.2,M,,*6A
19 $GPGGA,061052.00,5232.74361,N,01321.31213,E,1,11,0.79,56.2,M,42.2,M,,*65
20 $GPGGA,061053.00,5232.74358,N,01321.31213,E,1,11,0.79,56.1,M,42.2,M,,*6D
{'lat': 52.54573, 'lon': 13.3552, 'altitude': 56.5, 'satellite': 11.0}
07.01.2020 07:10:56
---> in: EJU5602
dists 1959 1959
det_eta 31
0
Traceback (most recent call last):
  File "scan1090.py", line 395, in <module>
    scan()
  File "scan1090.py", line 293, in scan
    detection = od.detect(runtime=wait, wait=wait, img_dir=img_dir, img_name=img_name)
  File "/home/pi/Desktop/project/script/od.py", line 154, in detect
    min_score_thresh=0.8)
  File "/home/pi/Desktop/project/script/utils/visualization_utils.py", line 841, in visualize_boxes_and_labels_on_image_array
    return image, ymin, xmin, ymax,  xmax
UnboundLocalError: local variable 'ymin' referenced before assignment

WARNING:tensorflow:From /home/pi/Desktop/project/script/utils/label_map_util.py:137: The name tf.gfile.GFile is deprecated. Please use tf.io.gfile.GFile instead.

WARNING:tensorflow:From /home/pi/Desktop/project/script/od.py:57: The name tf.GraphDef is deprecated. Please use tf.compat.v1.GraphDef instead.

WARNING:tensorflow:From /home/pi/Desktop/project/script/od.py:62: The name tf.Session is deprecated. Please use tf.compat.v1.Session instead.

warm up GPS
1 $GPGGA,061154.00,5232.74383,N,01321.30934,E,1,11,0.88,50.7,M,42.2,M,,*6C
2 $GPGGA,061155.00,5232.74381,N,01321.30958,E,1,11,0.88,50.5,M,42.2,M,,*67
3 $GPGGA,061156.00,5232.74387,N,01321.30977,E,1,11,0.88,50.7,M,42.2,M,,*6D
4 $GPGGA,061157.00,5232.74392,N,01321.30998,E,1,11,0.88,50.8,M,42.2,M,,*66
5 $GPGGA,061158.00,5232.74399,N,01321.31024,E,1,11,0.88,51.1,M,42.2,M,,*65
6 $GPGGA,061159.00,5232.74409,N,01321.31058,E,1,11,0.88,51.6,M,42.2,M,,*66
7 $GPGGA,061200.00,5232.74413,N,01321.31089,E,1,11,0.88,51.7,M,42.2,M,,*6F
8 $GPGGA,061201.00,5232.74416,N,01321.31108,E,1,11,0.88,51.8,M,42.2,M,,*6C
9 $GPGGA,061202.00,5232.74420,N,01321.31127,E,1,11,0.88,51.8,M,42.2,M,,*67
10 $GPGGA,061203.00,5232.74425,N,01321.31147,E,1,11,0.88,52.0,M,42.2,M,,*6E
11 $GPGGA,061204.00,5232.74426,N,01321.31162,E,1,11,0.88,51.9,M,42.2,M,,*67
12 $GPGGA,061205.00,5232.74427,N,01321.31177,E,1,11,0.88,51.8,M,42.2,M,,*62
13 $GPGGA,061206.00,5232.74430,N,01321.31186,E,1,11,0.88,51.8,M,42.2,M,,*69
14 $GPGGA,061207.00,5232.74431,N,01321.31196,E,1,11,0.88,51.6,M,42.2,M,,*66
15 $GPGGA,061208.00,5232.74430,N,01321.31205,E,1,11,0.88,51.4,M,42.2,M,,*63
16 $GPGGA,061209.00,5232.74431,N,01321.31213,E,1,12,0.88,51.3,M,42.2,M,,*60
17 $GPGGA,061210.00,5232.74430,N,01321.31216,E,1,12,0.88,51.2,M,42.2,M,,*6D
18 $GPGGA,061211.00,5232.74429,N,01321.31213,E,1,12,0.75,51.1,M,42.2,M,,*60
19 $GPGGA,061212.00,5232.74431,N,01321.31211,E,1,12,0.75,51.1,M,42.2,M,,*68
20 $GPGGA,061213.00,5232.74432,N,01321.31207,E,1,12,0.75,51.1,M,42.2,M,,*6D
{'lat': 52.54574, 'lon': 13.355199, 'altitude': 51.4, 'satellite': 11.5}
warm up GPS
1 $GPGGA,061220.00,5232.74392,N,01321.31213,E,1,12,0.94,48.8,M,42.2,M,,*6B
2 $GPGGA,061221.00,5232.74383,N,01321.31211,E,1,12,0.94,48.3,M,42.2,M,,*63
3 $GPGGA,061222.00,5232.74374,N,01321.31212,E,1,12,0.94,47.8,M,42.2,M,,*6F
4 $GPGGA,061223.00,5232.74364,N,01321.31212,E,1,12,0.94,47.4,M,42.2,M,,*63
5 $GPGGA,061224.00,5232.74354,N,01321.31212,E,1,12,0.94,46.9,M,42.2,M,,*6B
6 $GPGGA,061225.00,5232.74353,N,01321.31214,E,1,12,0.81,46.8,M,42.2,M,,*6E
7 $GPGGA,061226.00,5232.74349,N,01321.31216,E,1,12,0.93,46.6,M,42.2,M,,*69
8 $GPGGA,061227.00,5232.74348,N,01321.31221,E,1,12,0.91,46.5,M,42.2,M,,*6C
9 $GPGGA,061228.00,5232.74346,N,01321.31230,E,1,12,0.79,46.5,M,42.2,M,,*6B
10 $GPGGA,061229.00,5232.74348,N,01321.31234,E,1,12,0.75,46.6,M,42.2,M,,*6F
11 $GPGGA,061230.00,5232.74346,N,01321.31236,E,1,12,0.75,46.3,M,42.2,M,,*6E
12 $GPGGA,061231.00,5232.74343,N,01321.31238,E,1,12,0.76,46.0,M,42.2,M,,*64
13 $GPGGA,061232.00,5232.74339,N,01321.31240,E,1,12,0.76,45.7,M,42.2,M,,*61
14 $GPGGA,061233.00,5232.74334,N,01321.31241,E,1,12,0.76,45.4,M,42.2,M,,*6F
15 $GPGGA,061234.00,5232.74328,N,01321.31246,E,1,12,0.76,45.0,M,42.2,M,,*66
16 $GPGGA,061235.00,5232.74325,N,01321.31243,E,1,12,0.76,44.7,M,42.2,M,,*69
17 $GPGGA,061236.00,5232.74323,N,01321.31235,E,1,12,0.73,44.5,M,42.2,M,,*6A
18 $GPGGA,061237.00,5232.74323,N,01321.31227,E,1,12,0.73,44.3,M,42.2,M,,*6E
19 $GPGGA,061238.00,5232.74321,N,01321.31221,E,1,12,0.73,44.1,M,42.2,M,,*67
20 $GPGGA,061239.00,5232.74321,N,01321.31214,E,1,12,0.73,43.9,M,42.2,M,,*6F
{'lat': 52.54572, 'lon': 13.355207, 'altitude': 45.0, 'satellite': 12.0}

07.01.2020 07:13:35
---> out: AUA24PV
flightinfo {'airline': 'Austrian Airlines', 'icao': 'AUA', 'callsign': 'AUA24PV', 'flightnumber': 'OS240', 'aircraft': 'A319', 'origin': 'TXL', 'destination': 'VIE', 'hex': '440130', 'squawk': '1000', 'speed': 70, 'lat': 52.556442, 'lon': 13.271942, 'track': 262, 'validposition': 1, 'validtrack': 1, 'messages': 60, 'seen': 0, 'altitude': 228, 'vert_rate': 3200, 'timestamp': datetime.datetime(2020, 1, 7, 7, 13, 35, 998672, tzinfo=<DstTzInfo 'Europe/Amsterdam' CET+1:00:00 STD>), 'buffer': 'TXL', 'bound': 'out', 'det_eta': None, 'det_dist_surf': None, 'object': None, 'precision': None, 'img_url': None, 'framerate_avg': None, 'weather_status': 'Clouds', 'weather_status_detail': 'scattered clouds', 'icon': 'http://openweathermap.org/img/wn/03n@2x.png', 'temperature': -0.94, 'pressure': 1020, 'humidity': 92, 'visibility': 10000, 'wind_speed': 2.1, 'wind_direction': 270, 'cloud_coverage': 28, 'detection_time': datetime.datetime(2020, 1, 7, 7, 13, 36), 'sunrise_time': datetime.datetime(2020, 1, 7, 8, 15, 55), 'sunset_time': datetime.datetime(2020, 1, 7, 8, 15, 55), 'location_name': 'Berlin Reinickendorf'}
07.01.2020 07:13:49
---> in: DLH172
dists 3342 3357
det_eta 53
0
Traceback (most recent call last):
  File "scan1090.py", line 395, in <module>
    scan()
  File "scan1090.py", line 293, in scan
    detection = od.detect(runtime=wait, wait=wait, img_dir=img_dir, img_name=img_name)
  File "/home/pi/Desktop/project/script/od.py", line 154, in detect
    min_score_thresh=0.8)
  File "/home/pi/Desktop/project/script/utils/visualization_utils.py", line 841, in visualize_boxes_and_labels_on_image_array
    return image, ymin, xmin, ymax,  xmax
UnboundLocalError: local variable 'ymin' referenced before assignment

WARNING:tensorflow:From /home/pi/Desktop/project/script/utils/label_map_util.py:137: The name tf.gfile.GFile is deprecated. Please use tf.io.gfile.GFile instead.

WARNING:tensorflow:From /home/pi/Desktop/project/script/od.py:57: The name tf.GraphDef is deprecated. Please use tf.compat.v1.GraphDef instead.

WARNING:tensorflow:From /home/pi/Desktop/project/script/od.py:62: The name tf.Session is deprecated. Please use tf.compat.v1.Session instead.

warm up GPS
1 $GPGGA,061447.00,5232.73469,N,01321.30216,E,1,10,1.62,74.0,M,42.2,M,,*61
2 $GPGGA,061448.00,5232.73479,N,01321.30206,E,1,10,1.62,73.9,M,42.2,M,,*60
3 $GPGGA,061449.00,5232.73486,N,01321.30198,E,1,10,1.62,73.9,M,42.2,M,,*65
4 $GPGGA,061450.00,5232.73497,N,01321.30199,E,1,10,1.62,73.5,M,42.2,M,,*60
5 $GPGGA,061451.00,5232.73518,N,01321.30222,E,1,11,0.93,72.6,M,42.2,M,,*68
6 $GPGGA,061452.00,5232.73526,N,01321.30211,E,1,11,1.48,72.3,M,42.2,M,,*64
7 $GPGGA,061453.00,5232.73530,N,01321.30195,E,1,11,1.26,72.2,M,42.2,M,,*64
8 $GPGGA,061454.00,5232.73537,N,01321.30197,E,1,11,1.26,71.6,M,42.2,M,,*61
9 $GPGGA,061455.00,5232.73549,N,01321.30220,E,1,11,0.80,70.9,M,42.2,M,,*65
10 $GPGGA,061456.00,5232.73554,N,01321.30221,E,1,11,1.48,70.6,M,42.2,M,,*61
11 $GPGGA,061457.00,5232.73559,N,01321.30222,E,1,11,0.89,70.3,M,42.2,M,,*67
12 $GPGGA,061458.00,5232.73559,N,01321.30210,E,1,11,0.89,70.3,M,42.2,M,,*69
13 $GPGGA,061459.00,5232.73550,N,01321.30177,E,1,10,0.99,70.9,M,42.2,M,,*69
14 $GPGGA,061500.00,5232.73542,N,01321.30151,E,1,10,0.99,71.6,M,42.2,M,,*6D
15 $GPGGA,061501.00,5232.73536,N,01321.30130,E,1,10,0.99,72.1,M,42.2,M,,*6C
16 $GPGGA,061502.00,5232.73526,N,01321.30109,E,1,10,0.99,72.8,M,42.2,M,,*6D
17 $GPGGA,061503.00,5232.73519,N,01321.30093,E,1,10,0.99,73.4,M,42.2,M,,*6F
18 $GPGGA,061504.00,5232.73509,N,01321.30080,E,1,10,0.99,73.8,M,42.2,M,,*67
19 $GPGGA,061505.00,5232.73501,N,01321.30069,E,1,10,0.99,74.3,M,42.2,M,,*65
20 $GPGGA,061506.00,5232.73494,N,01321.30057,E,1,11,0.89,74.7,M,42.2,M,,*62
{'lat': 52.545587, 'lon': 13.355023, 'altitude': 72.4, 'satellite': 10.3}
warm up GPS
1 $GPGGA,061513.00,5232.73453,N,01321.29939,E,1,10,0.99,79.2,M,42.2,M,,*6C
2 $GPGGA,061514.00,5232.73445,N,01321.29922,E,1,10,0.91,79.8,M,42.2,M,,*64
3 $GPGGA,061515.00,5232.73438,N,01321.29917,E,1,10,0.97,80.3,M,42.2,M,,*62
4 $GPGGA,061516.00,5232.73435,N,01321.29916,E,1,10,0.97,80.6,M,42.2,M,,*68
5 $GPGGA,061517.00,5232.73429,N,01321.29909,E,1,10,1.37,80.9,M,42.2,M,,*6E
6 $GPGGA,061518.00,5232.73425,N,01321.29902,E,1,10,0.97,81.2,M,42.2,M,,*67
7 $GPGGA,061519.00,5232.73417,N,01321.29889,E,1,10,0.97,81.6,M,42.2,M,,*61
8 $GPGGA,061520.00,5232.73410,N,01321.29882,E,1,10,0.97,81.8,M,42.2,M,,*69
9 $GPGGA,061521.00,5232.73404,N,01321.29874,E,1,10,0.97,82.0,M,42.2,M,,*6F
10 $GPGGA,061522.00,5232.73399,N,01321.29869,E,1,10,0.89,81.9,M,42.2,M,,*66
11 $GPGGA,061523.00,5232.73394,N,01321.29864,E,1,10,0.91,82.0,M,42.2,M,,*64
12 $GPGGA,061524.00,5232.73386,N,01321.29855,E,1,10,0.91,82.0,M,42.2,M,,*62
13 $GPGGA,061525.00,5232.73374,N,01321.29842,E,1,10,0.89,81.9,M,42.2,M,,*6B
14 $GPGGA,061526.00,5232.73356,N,01321.29820,E,1,10,0.92,82.0,M,42.2,M,,*6C
15 $GPGGA,061527.00,5232.73339,N,01321.29800,E,1,10,0.92,81.9,M,42.2,M,,*6C
16 $GPGGA,061528.00,5232.73320,N,01321.29780,E,1,10,0.97,81.7,M,42.2,M,,*67
17 $GPGGA,061529.00,5232.73303,N,01321.29764,E,1,10,0.97,81.3,M,42.2,M,,*69
18 $GPGGA,061530.00,5232.73291,N,01321.29755,E,1,10,0.92,81.3,M,42.2,M,,*6C
19 $GPGGA,061531.00,5232.73277,N,01321.29742,E,1,10,0.92,81.4,M,42.2,M,,*64
20 $GPGGA,061532.00,5232.73267,N,01321.29732,E,1,10,0.92,81.1,M,42.2,M,,*64
{'lat': 52.545555, 'lon': 13.354967, 'altitude': 81.7, 'satellite': 10.0}

07.01.2020 07:16:29
---> out: SWR963
flightinfo {'airline': 'Swiss International Air Lines', 'icao': 'SWR', 'callsign': 'SWR963', 'flightnumber': 'LX963', 'aircraft': 'A320', 'origin': 'TXL', 'destination': 'ZRH', 'hex': '4b1617', 'squawk': '0000', 'speed': 70, 'lat': 52.557011, 'lon': 13.278233, 'track': 262, 'validposition': 1, 'validtrack': 1, 'messages': 78, 'seen': 0, 'altitude': 160, 'vert_rate': 3008, 'timestamp': datetime.datetime(2020, 1, 7, 7, 16, 29, 3679, tzinfo=<DstTzInfo 'Europe/Amsterdam' CET+1:00:00 STD>), 'buffer': 'TXL', 'bound': 'out', 'det_eta': None, 'det_dist_surf': None, 'object': None, 'precision': None, 'img_url': None, 'framerate_avg': None, 'weather_status': 'Clouds', 'weather_status_detail': 'scattered clouds', 'icon': 'http://openweathermap.org/img/wn/03n@2x.png', 'temperature': -0.91, 'pressure': 1020, 'humidity': 92, 'visibility': 10000, 'wind_speed': 2.1, 'wind_direction': 270, 'cloud_coverage': 28, 'detection_time': datetime.datetime(2020, 1, 7, 7, 16, 29), 'sunrise_time': datetime.datetime(2020, 1, 7, 8, 15, 58), 'sunset_time': datetime.datetime(2020, 1, 7, 8, 15, 58), 'location_name': 'Berlin Reinickendorf'}
07.01.2020 07:16:39
---> in: UAL962
dists 2951 2966
det_eta 49
0
Traceback (most recent call last):
  File "scan1090.py", line 395, in <module>
    scan()
  File "scan1090.py", line 293, in scan
    detection = od.detect(runtime=wait, wait=wait, img_dir=img_dir, img_name=img_name)
  File "/home/pi/Desktop/project/script/od.py", line 154, in detect
    min_score_thresh=0.8)
  File "/home/pi/Desktop/project/script/utils/visualization_utils.py", line 841, in visualize_boxes_and_labels_on_image_array
    return image, ymin, xmin, ymax,  xmax
UnboundLocalError: local variable 'ymin' referenced before assignment

WARNING:tensorflow:From /home/pi/Desktop/project/script/utils/label_map_util.py:137: The name tf.gfile.GFile is deprecated. Please use tf.io.gfile.GFile instead.

WARNING:tensorflow:From /home/pi/Desktop/project/script/od.py:57: The name tf.GraphDef is deprecated. Please use tf.compat.v1.GraphDef instead.

WARNING:tensorflow:From /home/pi/Desktop/project/script/od.py:62: The name tf.Session is deprecated. Please use tf.compat.v1.Session instead.

warm up GPS
1 $GPGGA,061736.00,5232.73401,N,01321.29980,E,1,10,0.89,40.2,M,42.2,M,,*67
2 $GPGGA,061737.00,5232.73397,N,01321.29972,E,1,09,0.90,39.0,M,42.2,M,,*6F
3 $GPGGA,061738.00,5232.73397,N,01321.29972,E,1,09,0.90,38.1,M,42.2,M,,*60
4 $GPGGA,061739.00,5232.73401,N,01321.29981,E,1,10,0.90,37.4,M,42.2,M,,*67
5 $GPGGA,061740.00,5232.73406,N,01321.29989,E,1,10,0.90,36.7,M,42.2,M,,*64
6 $GPGGA,061741.00,5232.73412,N,01321.30005,E,1,10,0.82,36.4,M,42.2,M,,*65
7 $GPGGA,061742.00,5232.73419,N,01321.30028,E,1,10,0.82,35.9,M,42.2,M,,*6C
8 $GPGGA,061743.00,5232.73421,N,01321.30044,E,1,10,0.82,35.5,M,42.2,M,,*60
9 $GPGGA,061744.00,5232.73422,N,01321.30068,E,1,10,0.82,35.4,M,42.2,M,,*6B
10 $GPGGA,061745.00,5232.73424,N,01321.30091,E,1,10,0.82,35.5,M,42.2,M,,*6B
11 $GPGGA,061746.00,5232.73424,N,01321.30113,E,1,10,0.82,35.4,M,42.2,M,,*62
12 $GPGGA,061747.00,5232.73420,N,01321.30114,E,1,10,0.90,35.2,M,42.2,M,,*65
13 $GPGGA,061748.00,5232.73415,N,01321.30118,E,1,10,0.82,35.2,M,42.2,M,,*63
14 $GPGGA,061749.00,5232.73406,N,01321.30120,E,1,10,0.82,35.0,M,42.2,M,,*69
15 $GPGGA,061750.00,5232.73400,N,01321.30132,E,1,10,0.83,35.3,M,42.2,M,,*66
16 $GPGGA,061751.00,5232.73394,N,01321.30137,E,1,10,0.82,35.5,M,42.2,M,,*6F
17 $GPGGA,061752.00,5232.73387,N,01321.30138,E,1,10,0.82,35.7,M,42.2,M,,*63
18 $GPGGA,061753.00,5232.73378,N,01321.30135,E,1,10,0.82,35.6,M,42.2,M,,*6E
19 $GPGGA,061754.00,5232.73373,N,01321.30136,E,1,10,0.83,35.9,M,42.2,M,,*6F
20 $GPGGA,061755.00,5232.73366,N,01321.30131,E,1,10,0.82,35.9,M,42.2,M,,*6C
{'lat': 52.545566, 'lon': 13.35502, 'altitude': 35.5, 'satellite': 10.0}
warm up GPS
1 $GPGGA,061801.00,5232.73320,N,01321.30136,E,1,11,0.82,34.8,M,42.2,M,,*66
2 $GPGGA,061802.00,5232.73313,N,01321.30140,E,1,11,0.82,34.5,M,42.2,M,,*69
3 $GPGGA,061803.00,5232.73307,N,01321.30153,E,1,11,0.83,34.5,M,42.2,M,,*6E
4 $GPGGA,061804.00,5232.73299,N,01321.30161,E,1,11,0.82,34.1,M,42.2,M,,*6B
5 $GPGGA,061805.00,5232.73293,N,01321.30179,E,1,11,0.80,33.7,M,42.2,M,,*6A
6 $GPGGA,061806.00,5232.73286,N,01321.30199,E,1,11,0.83,33.6,M,42.2,M,,*61
7 $GPGGA,061807.00,5232.73278,N,01321.30213,E,1,11,0.78,33.3,M,42.2,M,,*61
8 $GPGGA,061808.00,5232.73268,N,01321.30225,E,1,11,0.78,32.9,M,42.2,M,,*61
9 $GPGGA,061809.00,5232.73260,N,01321.30243,E,1,11,0.83,32.9,M,42.2,M,,*6C
10 $GPGGA,061810.00,5232.73264,N,01321.30247,E,1,11,0.78,32.8,M,42.2,M,,*61
11 $GPGGA,061811.00,5232.73269,N,01321.30255,E,1,11,0.83,32.8,M,42.2,M,,*6A
12 $GPGGA,061812.00,5232.73274,N,01321.30262,E,1,11,0.78,32.8,M,42.2,M,,*65
13 $GPGGA,061813.00,5232.73277,N,01321.30266,E,1,11,0.83,32.6,M,42.2,M,,*69
14 $GPGGA,061814.00,5232.73278,N,01321.30265,E,1,11,0.83,32.2,M,42.2,M,,*66
15 $GPGGA,061815.00,5232.73279,N,01321.30264,E,1,11,0.83,31.9,M,42.2,M,,*6F
16 $GPGGA,061816.00,5232.73281,N,01321.30263,E,1,11,0.83,31.7,M,42.2,M,,*62
17 $GPGGA,061817.00,5232.73284,N,01321.30263,E,1,11,0.80,31.5,M,42.2,M,,*67
18 $GPGGA,061818.00,5232.73288,N,01321.30263,E,1,11,0.80,31.2,M,42.2,M,,*63
19 $GPGGA,061819.00,5232.73290,N,01321.30262,E,1,11,0.80,31.0,M,42.2,M,,*68
20 $GPGGA,061820.00,5232.73292,N,01321.30258,E,1,11,0.80,30.8,M,42.2,M,,*60
{'lat': 52.545549, 'lon': 13.35504, 'altitude': 31.8, 'satellite': 11.0}
07.01.2020 07:19:32
---> in: 
dists 3197 3213
det_eta 52
0
Traceback (most recent call last):
  File "scan1090.py", line 395, in <module>
    scan()
  File "scan1090.py", line 293, in scan
    detection = od.detect(runtime=wait, wait=wait, img_dir=img_dir, img_name=img_name)
  File "/home/pi/Desktop/project/script/od.py", line 154, in detect
    min_score_thresh=0.8)
  File "/home/pi/Desktop/project/script/utils/visualization_utils.py", line 841, in visualize_boxes_and_labels_on_image_array
    return image, ymin, xmin, ymax,  xmax
UnboundLocalError: local variable 'ymin' referenced before assignment

WARNING:tensorflow:From /home/pi/Desktop/project/script/utils/label_map_util.py:137: The name tf.gfile.GFile is deprecated. Please use tf.io.gfile.GFile instead.

WARNING:tensorflow:From /home/pi/Desktop/project/script/od.py:57: The name tf.GraphDef is deprecated. Please use tf.compat.v1.GraphDef instead.

WARNING:tensorflow:From /home/pi/Desktop/project/script/od.py:62: The name tf.Session is deprecated. Please use tf.compat.v1.Session instead.

warm up GPS
1 $GPGGA,062030.00,5232.72374,N,01321.30440,E,1,11,1.00,-74.9,M,42.2,M,,*48
2 $GPGGA,062031.00,5232.72378,N,01321.30445,E,1,11,1.00,-74.7,M,42.2,M,,*4E
3 $GPGGA,062032.00,5232.72384,N,01321.30446,E,1,11,0.94,-74.4,M,42.2,M,,*42
4 $GPGGA,062033.00,5232.72387,N,01321.30449,E,1,11,1.12,-74.2,M,42.2,M,,*46
5 $GPGGA,062034.00,5232.72391,N,01321.30451,E,1,11,0.94,-73.9,M,42.2,M,,*4C
6 $GPGGA,062035.00,5232.72401,N,01321.30448,E,1,11,0.95,-73.5,M,42.2,M,,*46
7 $GPGGA,062036.00,5232.72410,N,01321.30441,E,1,11,0.95,-73.1,M,42.2,M,,*48
8 $GPGGA,062037.00,5232.72421,N,01321.30438,E,1,11,0.80,-72.5,M,42.2,M,,*44
9 $GPGGA,062038.00,5232.72430,N,01321.30437,E,1,11,0.94,-72.1,M,42.2,M,,*45
10 $GPGGA,062039.00,5232.72442,N,01321.30431,E,1,11,0.95,-71.7,M,42.2,M,,*43
11 $GPGGA,062040.00,5232.72448,N,01321.30426,E,1,11,0.95,-71.3,M,42.2,M,,*45
12 $GPGGA,062041.00,5232.72458,N,01321.30424,E,1,11,1.00,-71.0,M,42.2,M,,*49
13 $GPGGA,062042.00,5232.72466,N,01321.30425,E,1,11,0.95,-70.6,M,42.2,M,,*4C
14 $GPGGA,062043.00,5232.72475,N,01321.30428,E,1,11,0.95,-70.1,M,42.2,M,,*45
15 $GPGGA,062044.00,5232.72484,N,01321.30429,E,1,11,0.95,-69.7,M,42.2,M,,*43
16 $GPGGA,062045.00,5232.72486,N,01321.30430,E,1,11,0.95,-69.4,M,42.2,M,,*4B
17 $GPGGA,062046.00,5232.72490,N,01321.30427,E,1,11,0.95,-69.3,M,42.2,M,,*4E
18 $GPGGA,062047.00,5232.72490,N,01321.30421,E,1,11,0.95,-69.5,M,42.2,M,,*4F
19 $GPGGA,062048.00,5232.72490,N,01321.30418,E,1,10,0.95,-69.6,M,42.2,M,,*48
20 $GPGGA,062049.00,5232.72493,N,01321.30413,E,1,10,0.80,-69.6,M,42.2,M,,*45
{'lat': 52.545411, 'lon': 13.35507, 'altitude': -70.0, 'satellite': 10.8}
warm up GPS
1 $GPGGA,062055.00,5232.72526,N,01321.30392,E,1,11,0.94,-68.9,M,42.2,M,,*43
2 $GPGGA,062056.00,5232.72539,N,01321.30381,E,1,11,0.94,-68.7,M,42.2,M,,*42
3 $GPGGA,062057.00,5232.72550,N,01321.30367,E,1,11,0.94,-68.8,M,42.2,M,,*4B
4 $GPGGA,062058.00,5232.72556,N,01321.30351,E,1,11,1.12,-69.0,M,42.2,M,,*41
5 $GPGGA,062059.00,5232.72565,N,01321.30333,E,1,11,1.12,-69.2,M,42.2,M,,*46
6 $GPGGA,062100.00,5232.72588,N,01321.30312,E,1,11,0.80,-68.8,M,42.2,M,,*4A
7 $GPGGA,062101.00,5232.72608,N,01321.30297,E,1,11,0.94,-68.3,M,42.2,M,,*42
8 $GPGGA,062102.00,5232.72630,N,01321.30284,E,1,11,1.00,-67.6,M,42.2,M,,*4E
9 $GPGGA,062103.00,5232.72650,N,01321.30270,E,1,11,0.94,-66.8,M,42.2,M,,*41
10 $GPGGA,062104.00,5232.72669,N,01321.30259,E,1,10,1.00,-66.1,M,42.2,M,,*43
11 $GPGGA,062105.00,5232.72688,N,01321.30247,E,1,10,0.94,-65.5,M,42.2,M,,*49
12 $GPGGA,062106.00,5232.72706,N,01321.30236,E,1,10,0.94,-64.9,M,42.2,M,,*46
13 $GPGGA,062107.00,5232.72721,N,01321.30230,E,1,10,1.00,-64.2,M,42.2,M,,*43
14 $GPGGA,062108.00,5232.72743,N,01321.30222,E,1,10,1.00,-63.3,M,42.2,M,,*4D
15 $GPGGA,062109.00,5232.72761,N,01321.30216,E,1,10,1.00,-62.4,M,42.2,M,,*4D
16 $GPGGA,062110.00,5232.72774,N,01321.30213,E,1,10,1.00,-61.7,M,42.2,M,,*44
17 $GPGGA,062111.00,5232.72781,N,01321.30211,E,1,10,1.19,-61.1,M,42.2,M,,*43
18 $GPGGA,062112.00,5232.72789,N,01321.30211,E,1,10,1.00,-60.6,M,42.2,M,,*46
19 $GPGGA,062113.00,5232.72791,N,01321.30212,E,1,10,1.19,-60.2,M,42.2,M,,*41
20 $GPGGA,062114.00,5232.72795,N,01321.30211,E,1,10,1.00,-59.8,M,42.2,M,,*49
{'lat': 52.545459, 'lon': 13.35504, 'altitude': -62.4, 'satellite': 10.0}
07.01.2020 07:21:40
---> in: EWG2002
dists 3182 3197
det_eta 51
0
Traceback (most recent call last):
  File "scan1090.py", line 395, in <module>
    scan()
  File "scan1090.py", line 293, in scan
    detection = od.detect(runtime=wait, wait=wait, img_dir=img_dir, img_name=img_name)
  File "/home/pi/Desktop/project/script/od.py", line 154, in detect
    min_score_thresh=0.8)
  File "/home/pi/Desktop/project/script/utils/visualization_utils.py", line 841, in visualize_boxes_and_labels_on_image_array
    return image, ymin, xmin, ymax,  xmax
UnboundLocalError: local variable 'ymin' referenced before assignment

WARNING:tensorflow:From /home/pi/Desktop/project/script/utils/label_map_util.py:137: The name tf.gfile.GFile is deprecated. Please use tf.io.gfile.GFile instead.

WARNING:tensorflow:From /home/pi/Desktop/project/script/od.py:57: The name tf.GraphDef is deprecated. Please use tf.compat.v1.GraphDef instead.

WARNING:tensorflow:From /home/pi/Desktop/project/script/od.py:62: The name tf.Session is deprecated. Please use tf.compat.v1.Session instead.

warm up GPS
1 $GPGGA,062246.00,5232.74223,N,01321.30433,E,1,11,0.79,28.1,M,42.2,M,,*69
2 $GPGGA,062247.00,5232.74216,N,01321.30439,E,1,11,0.79,28.6,M,42.2,M,,*63
3 $GPGGA,062248.00,5232.74204,N,01321.30444,E,1,11,0.78,28.5,M,42.2,M,,*67
4 $GPGGA,062249.00,5232.74194,N,01321.30450,E,1,11,0.79,28.8,M,42.2,M,,*65
5 $GPGGA,062250.00,5232.74182,N,01321.30454,E,1,11,0.78,28.7,M,42.2,M,,*60
6 $GPGGA,062251.00,5232.74178,N,01321.30458,E,1,11,0.79,29.1,M,42.2,M,,*6E
7 $GPGGA,062252.00,5232.74173,N,01321.30459,E,1,11,0.78,29.2,M,42.2,M,,*65
8 $GPGGA,062253.00,5232.74171,N,01321.30456,E,1,11,0.78,29.2,M,42.2,M,,*69
9 $GPGGA,062254.00,5232.74172,N,01321.30456,E,1,11,0.79,29.6,M,42.2,M,,*68
10 $GPGGA,062255.00,5232.74171,N,01321.30450,E,1,11,0.78,29.6,M,42.2,M,,*6D
11 $GPGGA,062256.00,5232.74173,N,01321.30448,E,1,11,0.79,29.9,M,42.2,M,,*6B
12 $GPGGA,062257.00,5232.74174,N,01321.30441,E,1,11,0.75,30.0,M,42.2,M,,*69
13 $GPGGA,062258.00,5232.74174,N,01321.30433,E,1,11,0.75,30.1,M,42.2,M,,*62
14 $GPGGA,062259.00,5232.74174,N,01321.30425,E,1,11,0.75,30.1,M,42.2,M,,*64
15 $GPGGA,062300.00,5232.74172,N,01321.30414,E,1,11,0.75,29.9,M,42.2,M,,*6D
16 $GPGGA,062301.00,5232.74172,N,01321.30402,E,1,11,0.78,29.8,M,42.2,M,,*67
17 $GPGGA,062302.00,5232.74171,N,01321.30392,E,1,11,0.75,29.8,M,42.2,M,,*64
18 $GPGGA,062303.00,5232.74171,N,01321.30382,E,1,11,0.75,29.7,M,42.2,M,,*6B
